{
  "AL": {
    "name": "Alabama",
    "capital": "Montgomery",   
	"latitude":"32.7794",
    "longitude":"-86.8287"
  },
  "AK": {
    "name": "Alaska",     
    "capital": "Juneau",
    "latitude":"64.0685",
    "longitude":"-152.2782"
  },
  "AZ": {
    "name": "Arizona",
    "capital": "Phoenix",     
    "latitude":"34.2744",
    "longitude":"-111.6602"	
  },
  "AR": {
    "name": "Arkansas",
    "capital": "Little Rock",    
    "latitude":"34.8938",
    "longitude":"-92.4426"
  },
  "CA": {
    "name": "California",
    "capital": "Sacramento",  
    "latitude":"37.1841",
    "longitude":"-119.4696"
  },
  "CO": {
    "name": "Colorado",
    "capital": "Denver",    
    "latitude":"38.9972",
    "longitude":"-105.5478"
  },
  "CT": {
    "name": "Connecticut",
    "capital": "Hartford",   
    "latitude":"41.6219",
    "longitude":"-72.7273"	
  },
  "DC": {
	"name": "District of Columbia",
	"capital": "Washington, D.C.",     
	"latitude": "38.9101",
    "longitude": "-77.0147"
	},
  "DE": {
    "name": "Delaware",   
    "capital": "Dover",
    "latitude":"38.9896",
    "longitude":"-75.505"
  },
  "FL": {
    "name": "Florida",
    "capital": "Tallahassee",    
    "latitude":"28.6305",
    "longitude":"-82.4497"
  },
  "GA": {
    "name": "Georgia",
    "capital": "Atlanta",   
    "latitude":"32.6415",
    "longitude":"-83.4426"
  },
  "HI": {
    "name": "Hawaii",    
    "capital": "Honolulu",
    "latitude":"20.2927",
    "longitude":"-156.3737"
  },
  "ID": {
    "name": "Idaho",
    "capital": "Boise",   
    "latitude":"44.3509",
    "longitude":"-114.613"
  },
  "IL": {
    "name": "Illinois",
    "capital": "Springfield",  
    "latitude":"40.0417",
    "longitude":"-89.1965"
  },
  "IN": {
    "name": "Indiana",
    "capital": "Indianapolis",  
    "latitude":"39.8942",
    "longitude":"-86.2816"
  },
  "IA": {
    "name": "Iowa",
    "capital": "Des Moines",   
    "latitude":"42.0751",
    "longitude":"-93.496"
  },
  "KS": {
    "name": "Kansas",
    "capital": "Topeka",  
    "latitude":"38.4937", 
    "longitude":"-98.3804"
  },
  "KY": {
    "name": "Kentucky",
    "capital": "Frankfort",   
    "latitude":"37.5347",
    "longitude":"-85.3021"
  },
  "LA": {
    "name": "Louisiana",
    "capital": "Baton Rouge",   
    "latitude":"31.0689",
    "longitude":"-91.9968"
  },
  "ME": {
    "name": "Maine",
    "capital": "Augusta",   
    "latitude":"45.3695",
    "longitude":"-69.2428"
  },
  "MD": {
    "name": "Maryland",
    "capital": "Annapolis",   
    "latitude":"39.055",
    "longitude":"-76.7909"
  },
  "MA": {
    "name": "Massachusetts",   
    "capital": "Boston",
    "latitude":"42.2596",
    "longitude":"-71.8083"
  },
  "MI": {
    "name": "Michigan",
    "capital": "Lansing",  
    "latitude":"44.3467",
    "longitude":"-85.4102"
  },
  "MN": {
    "name": "Minnesota",
    "capital": "Saint Paul",   
    "latitude":"46.2807",
    "longitude":"-94.3053"
  },
  "MS": {
    "name": "Mississippi",
    "capital": "Jackson",    
    "latitude":"32.7364",
    "longitude":"-89.6678"
  },
  "MO": {
    "name": "Missouri",
    "capital": "Jefferson City",   
    "latitude":"38.3566",
    "longitude":"-92.458"
  },
  "MT": {
    "name": "Montana",
    "capital": "Helana",   
    "latitude":"47.0527",
    "longitude":"-109.6333"
  },
  "NE": {
    "name": "Nebraska",
    "capital": "Lincoln",    
    "latitude":"41.5378",
    "longitude":"-99.7951"
  },
  "NV": {
    "name": "Nevada",
    "capital": "Carson City",   
    "latitude":"39.3289",
    "longitude":"-116.6312"
  },
  "NH": {
    "name": "New Hampshire",
    "capital": "Concord",   
    "latitude":"43.6805",
    "longitude":"-71.5811"
  },
  "NJ": {
    "name": "New Jersey",
    "capital": "Trenton",  
    "latitude":"40.1907",
    "longitude":"-74.6728"
  },
  "NM": {
    "name": "New Mexico",
    "capital": "Santa Fe",    
    "latitude":"34.4071",
    "longitude":"-106.1126"
  },
  "NY": {
    "name": "New York",   
    "capital": "Albany",
    "latitude":"42.9538",
    "longitude":"-75.5268"
  },
  "NC": {
    "name": "North Carolina",
    "capital": "Raleigh",    
    "latitude":"35.5557",
    "longitude":"-79.3877"
  },
  "ND": {
    "name": "North Dakota",
    "capital": "Bismarck",   
    "latitude":"47.4501",
    "longitude":"-100.4659"
  },
  "OH": {
    "name": "Ohio",
    "capital": "Columbus",   
    "latitude":"40.2862",
    "longitude":"-82.7937"
  },
  "OK": {
    "name": "Oklahoma",
    "capital": "Oklahoma City",   
    "latitude":"35.5889",
    "longitude":"-97.4943"
  },
  "OR": {
    "name": "Oregon",      
    "capital": "Salem",
    "latitude":"43.9336",
    "longitude":"-120.5583"
  },
  "PA": {
    "name": "Pennsylvania",
    "capital": "Harrisburg",    
    "latitude":"40.8781",
    "longitude":"-77.7996"
  },
  "RI": {
    "name": "Rhode Island",
    "capital": "Providence",    
    "latitude":"41.6762",
    "longitude":"-71.5562"
  },
  "SC": {
    "name": "South Carolina",
    "capital": "Columbia",   
    "latitude":"33.9169",
    "longitude":"-80.8964"
  },
  "SD": {
    "name": "South Dakota",
    "capital": "Pierre",   
    "latitude":"44.4443",
    "longitude":"-100.2263"
  },
  "TN": {
    "name": "Tennessee",
    "capital": "Nashville",   
    "latitude":"35.858",
    "longitude":"-86.3505"
  },
  "TX": {
    "name": "Texas",
    "capital": "Austin",   
    "latitude":"31.4757",
    "longitude":"-99.3312"
  },
  "UT": {
    "name": "Utah",
    "capital": "Salt Lake City",   
    "latitude":"39.3055",
    "longitude":"-111.6703"
  },
  "VT": {
    "name": "Vermont",
    "capital": "Montpelier",    
    "latitude":"44.0687",
    "longitude":"-72.6658"
  },
  "VA": {
    "name": "Virginia",
    "capital": "Richmond",   
    "latitude":"37.5215",
    "longitude":"-78.8537"
  },
  "WA": {
    "name": "Washington",      
    "capital": "Olympia",
    "latitude":"47.3826",
    "longitude":"-120.4472"
  },
  "WV": {
    "name": "West Virginia",
    "capital": "Charleston",  
    "latitude":"38.6409",
    "longitude":"-80.6227"
  },
  "WI": {
    "name": "Wisconsin",
    "capital": "Madison",   
    "latitude":"44.6243",
    "longitude":"-89.9941"
  },
  "WY": {
    "name": "Wyoming",
    "capital": "Cheyenne",   
    "latitude":"42.9957",
    "longitude":"-107.5512"
  }
}